<?xml version="1.0" encoding="UTF-8"?>
<kml xmlns="http://www.opengis.net/kml/2.2" xmlns:xsi="http://www.w3.org/2001/XMLSchema-instance" xsi:schemaLocation="http://www.opengis.net/kml/2.2 http://schemas.opengis.net/kml/2.2.0/ogckml22.xsd">
  <Document>
    <name>Map - July 27, 2024</name>
    <description><![CDATA[Generated by AllTrails https://www.alltrails.com/]]></description>
    <Style id="gpsiesStyle">
      <IconStyle>
        <scale>0.5</scale>
        <Icon>
          <href>https://www.gpsies.com/images/milestone.png</href>
        </Icon>
      </IconStyle>
      <LineStyle>
        <colorMode>random</colorMode>
        <width>5</width>
      </LineStyle>
    </Style>
    <Style id="flag_n">
      <IconStyle>
        <scale>0.8</scale>
        <Icon>
          <href>https://www.gpsies.com/images/flag.png</href>
        </Icon>
      </IconStyle>
      <LabelStyle>
        <scale>0</scale>
      </LabelStyle>
      <BalloonStyle>
        <text>$[description]</text>
      </BalloonStyle>
    </Style>
    <Style id="flag_h">
      <IconStyle>
        <scale>0.8</scale>
        <Icon>
          <href>https://www.gpsies.com/images/flag.png</href>
        </Icon>
      </IconStyle>
      <LabelStyle>
        <scale>1</scale>
      </LabelStyle>
      <BalloonStyle>
        <text>$[description]</text>
      </BalloonStyle>
    </Style>
    <StyleMap id="flag">
      <Pair>
        <key>normal</key>
        <styleUrl>#flag_n</styleUrl>
      </Pair>
      <Pair>
        <key>highlight</key>
        <styleUrl>#flag_h</styleUrl>
      </Pair>
    </StyleMap>
    <Style id="generic_n">
      <IconStyle>
        <scale>0.8</scale>
        <Icon>
          <href>https://www.gpsies.com/images/waypointIcons/generic.png</href>
        </Icon>
      </IconStyle>
      <LabelStyle>
        <scale>0</scale>
      </LabelStyle>
      <BalloonStyle>
        <text>$[description]</text>
      </BalloonStyle>
    </Style>
    <Style id="generic_h">
      <IconStyle>
        <scale>0.8</scale>
        <Icon>
          <href>https://www.gpsies.com/images/waypointIcons/generic.png</href>
        </Icon>
      </IconStyle>
      <LabelStyle>
        <scale>1</scale>
      </LabelStyle>
      <BalloonStyle>
        <text>$[description]</text>
      </BalloonStyle>
    </Style>
    <StyleMap id="generic">
      <Pair>
        <key>normal</key>
        <styleUrl>#generic_n</styleUrl>
      </Pair>
      <Pair>
        <key>highlight</key>
        <styleUrl>#generic_h</styleUrl>
      </Pair>
    </StyleMap>
                
        <Placemark>
        <name>---83.41999999999999--- www.skipperi.fi/venevuokraus/maxi/68/2271</name>
        <styleUrl>#generic</styleUrl>
        <Point>
            <coordinates>18.722327077808,59.362038157463,0</coordinates>
        </Point>
        </Placemark>
                        
        <Placemark>
        <name>---123.40999999999998--- www.skipperi.fi/venevuokraus/maxi/95/1916</name>
        <styleUrl>#generic</styleUrl>
        <Point>
            <coordinates>13.519053904974,59.366251750949,0</coordinates>
        </Point>
        </Placemark>
                        
        <Placemark>
        <name>---140.0--- www.skipperi.fi/venevuokraus/finn/26/3401</name>
        <styleUrl>#generic</styleUrl>
        <Point>
            <coordinates>25.058712663147,60.167128076132,0</coordinates>
        </Point>
        </Placemark>
                        
        <Placemark>
        <name>---225.0--- www.skipperi.fi/venevuokraus/hallberg-rassy/monsun-31/4615</name>
        <styleUrl>#generic</styleUrl>
        <Point>
            <coordinates>24.965392216228,60.150351325554,0</coordinates>
        </Point>
        </Placemark>
                        
        <Placemark>
        <name>---100.0--- www.skipperi.fi/venevuokraus/finn/26---cherie/4788</name>
        <styleUrl>#generic</styleUrl>
        <Point>
            <coordinates>24.717436172068,60.146294174904,0</coordinates>
        </Point>
        </Placemark>
                        
        <Placemark>
        <name>---120.0--- www.skipperi.fi/venevuokraus/finn-flyer/31/4541</name>
        <styleUrl>#generic</styleUrl>
        <Point>
            <coordinates>25.021260486075,60.190456837805,0</coordinates>
        </Point>
        </Placemark>
                        
        <Placemark>
        <name>---146.2--- www.skipperi.fi/venevuokraus/maxi/95/2956</name>
        <styleUrl>#generic</styleUrl>
        <Point>
            <coordinates>13.066232781445,55.675060714647,0</coordinates>
        </Point>
        </Placemark>
                        
        <Placemark>
        <name>---150.0--- www.skipperi.fi/venevuokraus/guyline/822/2570</name>
        <styleUrl>#generic</styleUrl>
        <Point>
            <coordinates>23.432221517001,59.977065622385,0</coordinates>
        </Point>
        </Placemark>
                        
        <Placemark>
        <name>---90.0--- www.skipperi.fi/venevuokraus/sunwind/26/2284</name>
        <styleUrl>#generic</styleUrl>
        <Point>
            <coordinates>22.119402192749,60.463155741474,0</coordinates>
        </Point>
        </Placemark>
                        
        <Placemark>
        <name>---66.22--- www.skipperi.fi/venevuokraus/maxi/77/5092</name>
        <styleUrl>#generic</styleUrl>
        <Point>
            <coordinates>18.055794239044,59.372872415586,0</coordinates>
        </Point>
        </Placemark>
                        
        <Placemark>
        <name>---228.0--- www.skipperi.fi/venevuokraus/bianca/360/1716</name>
        <styleUrl>#generic</styleUrl>
        <Point>
            <coordinates>24.966972345222,60.170145751173,0</coordinates>
        </Point>
        </Placemark>
                        
        <Placemark>
        <name>---260.0--- www.skipperi.fi/venevuokraus/diva/diva39/421</name>
        <styleUrl>#generic</styleUrl>
        <Point>
            <coordinates>24.380288439535,60.084754117452,0</coordinates>
        </Point>
        </Placemark>
                        
        <Placemark>
        <name>---77.39999999999999--- www.skipperi.fi/venevuokraus/albin/cumulus/3152</name>
        <styleUrl>#generic</styleUrl>
        <Point>
            <coordinates>12.54896307549,56.19818693604,0</coordinates>
        </Point>
        </Placemark>
                        
        <Placemark>
        <name>---214.0--- www.skipperi.fi/venevuokraus/beneteau/first-38s5/2073</name>
        <styleUrl>#generic</styleUrl>
        <Point>
            <coordinates>24.619123604409,60.156076928315,0</coordinates>
        </Point>
        </Placemark>
                        
        <Placemark>
        <name>---114.80999999999999--- www.skipperi.fi/venevuokraus/maxi/95/2855</name>
        <styleUrl>#generic</styleUrl>
        <Point>
            <coordinates>12.989505229308,55.616770969466,0</coordinates>
        </Point>
        </Placemark>
                        
        <Placemark>
        <name>---145.0--- www.skipperi.fi/venevuokraus/albin/delta-31/3621</name>
        <styleUrl>#generic</styleUrl>
        <Point>
            <coordinates>23.430000375378,59.875931982131,0</coordinates>
        </Point>
        </Placemark>
                        
        <Placemark>
        <name>---250.0--- www.skipperi.fi/venevuokraus/gemini/105-mc/21</name>
        <styleUrl>#generic</styleUrl>
        <Point>
            <coordinates>25.185105800629,60.205689028426,0</coordinates>
        </Point>
        </Placemark>
                        
        <Placemark>
        <name>---51.6--- www.skipperi.fi/venevuokraus/maxi/77/3617</name>
        <styleUrl>#generic</styleUrl>
        <Point>
            <coordinates>11.664952674386,57.694972168952,0</coordinates>
        </Point>
        </Placemark>
                        
        <Placemark>
        <name>---300.0--- www.skipperi.fi/venevuokraus/beneteau/oceanis-381/1039</name>
        <styleUrl>#generic</styleUrl>
        <Point>
            <coordinates>21.588411977443,63.095741984314,0</coordinates>
        </Point>
        </Placemark>
                        
        <Placemark>
        <name>---140.0--- www.skipperi.fi/venevuokraus/jeanneau/sun-2000/593</name>
        <styleUrl>#generic</styleUrl>
        <Point>
            <coordinates>21.406332453164,60.797778837646,0</coordinates>
        </Point>
        </Placemark>
                        
        <Placemark>
        <name>---145.33999999999997--- www.skipperi.fi/venevuokraus/gepard/trimaran/1357</name>
        <styleUrl>#generic</styleUrl>
        <Point>
            <coordinates>18.323068731012,59.430927300746,0</coordinates>
        </Point>
        </Placemark>
                        
        <Placemark>
        <name>---103.2--- www.skipperi.fi/venevuokraus/maxi/77/2376</name>
        <styleUrl>#generic</styleUrl>
        <Point>
            <coordinates>16.693718028444,57.901221441393,0</coordinates>
        </Point>
        </Placemark>
                        
        <Placemark>
        <name>---308.73999999999995--- www.skipperi.fi/venevuokraus/bavaria/50-cruiser/3866</name>
        <styleUrl>#generic</styleUrl>
        <Point>
            <coordinates>17.942275915336,62.808502998114,0</coordinates>
        </Point>
        </Placemark>
                        
        <Placemark>
        <name>---80.0--- www.skipperi.fi/venevuokraus/purjevene/guy-go-five/1582</name>
        <styleUrl>#generic</styleUrl>
        <Point>
            <coordinates>27.672046006303,62.983746210839,0</coordinates>
        </Point>
        </Placemark>
                        
        <Placemark>
        <name>---301.0--- www.skipperi.fi/venevuokraus/benetau-38/oceanis/4669</name>
        <styleUrl>#generic</styleUrl>
        <Point>
            <coordinates>11.837339401245,57.658810609278,0</coordinates>
        </Point>
        </Placemark>
                        
        <Placemark>
        <name>---105.0--- www.skipperi.fi/venevuokraus/winga/rc-860/3115</name>
        <styleUrl>#generic</styleUrl>
        <Point>
            <coordinates>23.679004671285,61.621041311993,0</coordinates>
        </Point>
        </Placemark>
                        
        <Placemark>
        <name>---223.59999999999997--- www.skipperi.fi/venevuokraus/robertsmithimage.com/32/1683</name>
        <styleUrl>#generic</styleUrl>
        <Point>
            <coordinates>11.691773235798,58.010367110394,0</coordinates>
        </Point>
        </Placemark>
                        
        <Placemark>
        <name>---360.0--- www.skipperi.fi/venevuokraus/bavaria/50-cruiser/4619</name>
        <styleUrl>#generic</styleUrl>
        <Point>
            <coordinates>24.984310197663,60.142632566349,0</coordinates>
        </Point>
        </Placemark>
                        
        <Placemark>
        <name>---120.39999999999999--- www.skipperi.fi/venevuokraus/albin/vega/2045</name>
        <styleUrl>#generic</styleUrl>
        <Point>
            <coordinates>18.256221854894,59.296151559964,0</coordinates>
        </Point>
        </Placemark>
                        
        <Placemark>
        <name>---220.0--- www.skipperi.fi/venevuokraus/jeanneau/sun-odyssey-35/4272</name>
        <styleUrl>#generic</styleUrl>
        <Point>
            <coordinates>24.735770704261,60.14329865131,0</coordinates>
        </Point>
        </Placemark>
                        
        <Placemark>
        <name>---326.79999999999995--- www.skipperi.fi/venevuokraus/viko-s35/--3-berth-luxury-cruiser/3222</name>
        <styleUrl>#generic</styleUrl>
        <Point>
            <coordinates>18.260174161683,59.295912315234,0</coordinates>
        </Point>
        </Placemark>
                        
        <Placemark>
        <name>---300.0--- www.skipperi.fi/venevuokraus/swan/39r/1781</name>
        <styleUrl>#generic</styleUrl>
        <Point>
            <coordinates>24.96169215252,60.172547681578,0</coordinates>
        </Point>
        </Placemark>
                        
        <Placemark>
        <name>---390.0--- www.skipperi.fi/venevuokraus/delphia/37/1211</name>
        <styleUrl>#generic</styleUrl>
        <Point>
            <coordinates>22.961409949556,59.827471445303,0</coordinates>
        </Point>
        </Placemark>
                        
        <Placemark>
        <name>---220.0--- www.skipperi.fi/venevuokraus/bavaria/34-3/3594</name>
        <styleUrl>#generic</styleUrl>
        <Point>
            <coordinates>28.883579213333,61.868692731325,0</coordinates>
        </Point>
        </Placemark>
                        
        <Placemark>
        <name>---51.6--- www.skipperi.fi/venevuokraus/marieholm/if/3760</name>
        <styleUrl>#generic</styleUrl>
        <Point>
            <coordinates>18.723802662056,59.324990600049,0</coordinates>
        </Point>
        </Placemark>
                        
        <Placemark>
        <name>---350.0--- www.skipperi.fi/venevuokraus/bavaria/42-cruiser/3799</name>
        <styleUrl>#generic</styleUrl>
        <Point>
            <coordinates>24.62456703186,60.155368227754,0</coordinates>
        </Point>
        </Placemark>
                        
        <Placemark>
        <name>---133.29999999999998--- www.skipperi.fi/venevuokraus/albin/scampi/3045</name>
        <styleUrl>#generic</styleUrl>
        <Point>
            <coordinates>11.542579164428,57.94778835046,0</coordinates>
        </Point>
        </Placemark>
                        
        <Placemark>
        <name>---170.0--- www.skipperi.fi/venevuokraus/cenit/33/3202</name>
        <styleUrl>#generic</styleUrl>
        <Point>
            <coordinates>24.621610639954,60.15581001428,0</coordinates>
        </Point>
        </Placemark>
                        
        <Placemark>
        <name>---43.0--- www.skipperi.fi/venevuokraus/maxi/77/2349</name>
        <styleUrl>#generic</styleUrl>
        <Point>
            <coordinates>11.802468101412,57.763373859191,0</coordinates>
        </Point>
        </Placemark>
                        
        <Placemark>
        <name>---301.0--- www.skipperi.fi/venevuokraus/colin-archer/stl-ketch/5708</name>
        <styleUrl>#generic</styleUrl>
        <Point>
            <coordinates>18.144373731829,59.396742925051,0</coordinates>
        </Point>
        </Placemark>
                        
        <Placemark>
        <name>---464.4--- www.skipperi.fi/venevuokraus/bavaria/50-cruiser/2193</name>
        <styleUrl>#generic</styleUrl>
        <Point>
            <coordinates>11.843000911903,57.658819114548,0</coordinates>
        </Point>
        </Placemark>
                        
        <Placemark>
        <name>---111.79999999999998--- www.skipperi.fi/venevuokraus/arcona/32/2641</name>
        <styleUrl>#generic</styleUrl>
        <Point>
            <coordinates>18.051227974168,59.376815098305,0</coordinates>
        </Point>
        </Placemark>
                        
        <Placemark>
        <name>---50.0--- www.skipperi.fi/venevuokraus/-/guy-22/5513</name>
        <styleUrl>#generic</styleUrl>
        <Point>
            <coordinates>25.757746696472,62.236293326938,0</coordinates>
        </Point>
        </Placemark>
                        
        <Placemark>
        <name>---214.99999999999997--- www.skipperi.fi/venevuokraus/impala/36/1749</name>
        <styleUrl>#generic</styleUrl>
        <Point>
            <coordinates>11.793285585937,57.758723268874,0</coordinates>
        </Point>
        </Placemark>
                        
        <Placemark>
        <name>---68.8--- www.skipperi.fi/venevuokraus/if/bt/3666</name>
        <styleUrl>#generic</styleUrl>
        <Point>
            <coordinates>18.295906618973,59.46564624,0</coordinates>
        </Point>
        </Placemark>
                        
        <Placemark>
        <name>---370.0--- www.skipperi.fi/venevuokraus/elan/impression-354/3569</name>
        <styleUrl>#generic</styleUrl>
        <Point>
            <coordinates>21.862277984619,60.360667761892,0</coordinates>
        </Point>
        </Placemark>
                        
        <Placemark>
        <name>---85.0--- www.skipperi.fi/venevuokraus/albin/express/4863</name>
        <styleUrl>#generic</styleUrl>
        <Point>
            <coordinates>24.850788331942,60.161966245957,0</coordinates>
        </Point>
        </Placemark>
                        
        <Placemark>
        <name>---600.0--- www.skipperi.fi/venevuokraus/beneteau/oceanis-38.1/2921</name>
        <styleUrl>#generic</styleUrl>
        <Point>
            <coordinates>25.062983922373,60.184987879928,0</coordinates>
        </Point>
        </Placemark>
                        
        <Placemark>
        <name>---189.2--- www.skipperi.fi/venevuokraus/maxi/fenix/5419</name>
        <styleUrl>#generic</styleUrl>
        <Point>
            <coordinates>18.379556297818,59.323988569827,0</coordinates>
        </Point>
        </Placemark>
                        
        <Placemark>
        <name>---166.0--- www.skipperi.fi/venevuokraus/nauticat/38/4447</name>
        <styleUrl>#generic</styleUrl>
        <Point>
            <coordinates>22.123251027951,60.261214668511,0</coordinates>
        </Point>
        </Placemark>
                        
        <Placemark>
        <name>---111.79999999999998--- www.skipperi.fi/venevuokraus/maxi/fenix/5040</name>
        <styleUrl>#generic</styleUrl>
        <Point>
            <coordinates>18.379494578145,59.324154041282,0</coordinates>
        </Point>
        </Placemark>
                        
        <Placemark>
        <name>---385.0--- www.skipperi.fi/venevuokraus/bavaria/42-cruiser/3710</name>
        <styleUrl>#generic</styleUrl>
        <Point>
            <coordinates>22.10914850235,60.251993606769,0</coordinates>
        </Point>
        </Placemark>
                        
        <Placemark>
        <name>---142.0--- www.skipperi.fi/venevuokraus/targa/targa-96/4102</name>
        <styleUrl>#generic</styleUrl>
        <Point>
            <coordinates>24.904546737671,60.158571593371,0</coordinates>
        </Point>
        </Placemark>
                        
        <Placemark>
        <name>---232.2--- www.skipperi.fi/venevuokraus/jeanneau/jeanneau-sun-odyssey-32/4793</name>
        <styleUrl>#generic</styleUrl>
        <Point>
            <coordinates>18.649291992188,59.300428078876,0</coordinates>
        </Point>
        </Placemark>
                        
        <Placemark>
        <name>---385.0--- www.skipperi.fi/venevuokraus/bavaria/34-cruiser/4642</name>
        <styleUrl>#generic</styleUrl>
        <Point>
            <coordinates>21.977985024235,60.314062712587,0</coordinates>
        </Point>
        </Placemark>
                        
        <Placemark>
        <name>---94.6--- www.skipperi.fi/venevuokraus/shipman/28/5728</name>
        <styleUrl>#generic</styleUrl>
        <Point>
            <coordinates>13.067222398666,55.674921960348,0</coordinates>
        </Point>
        </Placemark>
                        
        <Placemark>
        <name>---260.0--- www.skipperi.fi/venevuokraus/elan/37/3235</name>
        <styleUrl>#generic</styleUrl>
        <Point>
            <coordinates>24.734080349839,60.144115430673,0</coordinates>
        </Point>
        </Placemark>
                        
        <Placemark>
        <name>---51.6--- www.skipperi.fi/venevuokraus/maxi/77/5704</name>
        <styleUrl>#generic</styleUrl>
        <Point>
            <coordinates>11.855767746452,57.666832224933,0</coordinates>
        </Point>
        </Placemark>
                        
        <Placemark>
        <name>---257.99999999999994--- www.skipperi.fi/venevuokraus/dufour/325-grand-large/2821</name>
        <styleUrl>#generic</styleUrl>
        <Point>
            <coordinates>11.654228794952,57.888641574923,0</coordinates>
        </Point>
        </Placemark>
                        
        <Placemark>
        <name>---300.0--- www.skipperi.fi/venevuokraus/jeanneau/sun-odyssey-33i/1412</name>
        <styleUrl>#generic</styleUrl>
        <Point>
            <coordinates>21.975987788405,60.475390473608,0</coordinates>
        </Point>
        </Placemark>
                        
        <Placemark>
        <name>---172.0--- www.skipperi.fi/venevuokraus/jeanneau/sun-odyssey-32/4865</name>
        <styleUrl>#generic</styleUrl>
        <Point>
            <coordinates>16.835517883301,58.542954292699,0</coordinates>
        </Point>
        </Placemark>
                        
        <Placemark>
        <name>---185.0--- www.skipperi.fi/venevuokraus/scanmar/33/4596</name>
        <styleUrl>#generic</styleUrl>
        <Point>
            <coordinates>22.15837313357,60.425508915504,0</coordinates>
        </Point>
        </Placemark>
                        
        <Placemark>
        <name>---515.9999999999999--- www.skipperi.fi/venevuokraus/bavaria/50-cruiser/2280</name>
        <styleUrl>#generic</styleUrl>
        <Point>
            <coordinates>18.301988570915,59.276218289457,0</coordinates>
        </Point>
        </Placemark>
                        
        <Placemark>
        <name>---326.8--- www.skipperi.fi/venevuokraus/beneteau/oceanis-361/4029</name>
        <styleUrl>#generic</styleUrl>
        <Point>
            <coordinates>18.232254204079,59.299937524172,0</coordinates>
        </Point>
        </Placemark>
                        
        <Placemark>
        <name>---279.0--- www.skipperi.fi/venevuokraus/beneteau/oceanis-clipper-343/85</name>
        <styleUrl>#generic</styleUrl>
        <Point>
            <coordinates>22.131350026466,60.268137583272,0</coordinates>
        </Point>
        </Placemark>
                        
        <Placemark>
        <name>---275.0--- www.skipperi.fi/venevuokraus/bavaria/38-holiday/2592</name>
        <styleUrl>#generic</styleUrl>
        <Point>
            <coordinates>22.121795422471,60.261221787072,0</coordinates>
        </Point>
        </Placemark>
                        
        <Placemark>
        <name>---110.0--- www.skipperi.fi/venevuokraus/artekno/h/1579</name>
        <styleUrl>#generic</styleUrl>
        <Point>
            <coordinates>24.964487812481,60.173973589529,0</coordinates>
        </Point>
        </Placemark>
                        
        <Placemark>
        <name>---290.0--- www.skipperi.fi/venevuokraus/finngulf/37-hs/5457</name>
        <styleUrl>#generic</styleUrl>
        <Point>
            <coordinates>25.022255270683,60.190694809719,0</coordinates>
        </Point>
        </Placemark>
                        
        <Placemark>
        <name>---89.00999999999999--- www.skipperi.fi/venevuokraus/maxi/77/2148</name>
        <styleUrl>#generic</styleUrl>
        <Point>
            <coordinates>11.519625301868,58.020815300056,0</coordinates>
        </Point>
        </Placemark>
                        
        <Placemark>
        <name>---115.0--- www.skipperi.fi/venevuokraus/omega/30a/2990</name>
        <styleUrl>#generic</styleUrl>
        <Point>
            <coordinates>22.117916909566,60.463673825179,0</coordinates>
        </Point>
        </Placemark>
                        
        <Placemark>
        <name>---34.4--- www.skipperi.fi/venevuokraus/maxi/77/5587</name>
        <styleUrl>#generic</styleUrl>
        <Point>
            <coordinates>16.546486306951,59.603166671136,0</coordinates>
        </Point>
        </Placemark>
                        
        <Placemark>
        <name>---200.0--- www.skipperi.fi/venevuokraus/dehler/33/1705</name>
        <styleUrl>#generic</styleUrl>
        <Point>
            <coordinates>22.949407005089,59.842982723314,0</coordinates>
        </Point>
        </Placemark>
                        
        <Placemark>
        <name>---120.0--- www.skipperi.fi/venevuokraus/helmsman/senorita/3584</name>
        <styleUrl>#generic</styleUrl>
        <Point>
            <coordinates>25.023985620595,60.179942785415,0</coordinates>
        </Point>
        </Placemark>
                        
        <Placemark>
        <name>---300.0--- www.skipperi.fi/venevuokraus/dufour/385/1771</name>
        <styleUrl>#generic</styleUrl>
        <Point>
            <coordinates>22.341901842498,60.363439255533,0</coordinates>
        </Point>
        </Placemark>
                        
        <Placemark>
        <name>---214.99999999999997--- www.skipperi.fi/venevuokraus/bavaria/31-cruiser/5649</name>
        <styleUrl>#generic</styleUrl>
        <Point>
            <coordinates>18.16244131303,59.379242606477,0</coordinates>
        </Point>
        </Placemark>
                        
        <Placemark>
        <name>---386.99999999999994--- www.skipperi.fi/venevuokraus/hanse/418/3433</name>
        <styleUrl>#generic</styleUrl>
        <Point>
            <coordinates>12.914723120411,55.58307752559,0</coordinates>
        </Point>
        </Placemark>
                        
        <Placemark>
        <name>---235.0--- www.skipperi.fi/venevuokraus/bavaria/37/4319</name>
        <styleUrl>#generic</styleUrl>
        <Point>
            <coordinates>24.849883317947,60.162666107831,0</coordinates>
        </Point>
        </Placemark>
                        
        <Placemark>
        <name>---62.349999999999994--- www.skipperi.fi/venevuokraus/krona-boats/2-krona/2355</name>
        <styleUrl>#generic</styleUrl>
        <Point>
            <coordinates>18.309358869642,59.282641925796,0</coordinates>
        </Point>
        </Placemark>
                        
        <Placemark>
        <name>---428.0--- www.skipperi.fi/venevuokraus/beneteau/oceanis-37/2342</name>
        <styleUrl>#generic</styleUrl>
        <Point>
            <coordinates>22.50855371565,60.017773925076,0</coordinates>
        </Point>
        </Placemark>
                        
        <Placemark>
        <name>---140.0--- www.skipperi.fi/venevuokraus/s30/classic/5664</name>
        <styleUrl>#generic</styleUrl>
        <Point>
            <coordinates>22.125779981718,60.374045283819,0</coordinates>
        </Point>
        </Placemark>
                        
        <Placemark>
        <name>---82.0--- www.skipperi.fi/venevuokraus/murena/30/3650</name>
        <styleUrl>#generic</styleUrl>
        <Point>
            <coordinates>22.117366790771,60.463353737077,0</coordinates>
        </Point>
        </Placemark>
                        
        <Placemark>
        <name>---154.79999999999998--- www.skipperi.fi/venevuokraus/maxi/87/809</name>
        <styleUrl>#generic</styleUrl>
        <Point>
            <coordinates>11.7448466,58.0666487,0</coordinates>
        </Point>
        </Placemark>
                        
        <Placemark>
        <name>---301.0--- www.skipperi.fi/venevuokraus/beneteau/first-35s5/4612</name>
        <styleUrl>#generic</styleUrl>
        <Point>
            <coordinates>18.278990725059,59.082072828171,0</coordinates>
        </Point>
        </Placemark>
                        
        <Placemark>
        <name>---257.99999999999994--- www.skipperi.fi/venevuokraus/bavaria/37-cruiser/3543</name>
        <styleUrl>#generic</styleUrl>
        <Point>
            <coordinates>18.277559280396,59.457333817716,0</coordinates>
        </Point>
        </Placemark>
                        
        <Placemark>
        <name>---154.79999999999998--- www.skipperi.fi/venevuokraus/bavaria/340-caribic/5356</name>
        <styleUrl>#generic</styleUrl>
        <Point>
            <coordinates>18.28634548847,59.454551116361,0</coordinates>
        </Point>
        </Placemark>
                        
        <Placemark>
        <name>---159.09999999999997--- www.skipperi.fi/venevuokraus/scampi/30/2390</name>
        <styleUrl>#generic</styleUrl>
        <Point>
            <coordinates>18.061714344922,59.374476980709,0</coordinates>
        </Point>
        </Placemark>
                        
        <Placemark>
        <name>---197.79999999999998--- www.skipperi.fi/venevuokraus/bavaria/34-cruiser/1769</name>
        <styleUrl>#generic</styleUrl>
        <Point>
            <coordinates>18.304583901029,59.120121654361,0</coordinates>
        </Point>
        </Placemark>
                        
        <Placemark>
        <name>---264.45--- www.skipperi.fi/venevuokraus/ansa/42/1805</name>
        <styleUrl>#generic</styleUrl>
        <Point>
            <coordinates>11.424801443415,58.275693353608,0</coordinates>
        </Point>
        </Placemark>
                        
        <Placemark>
        <name>---210.0--- www.skipperi.fi/venevuokraus/bavaria/cruiser-30/1721</name>
        <styleUrl>#generic</styleUrl>
        <Point>
            <coordinates>22.119752101974,60.46281707997,0</coordinates>
        </Point>
        </Placemark>
                        
        <Placemark>
        <name>---210.0--- www.skipperi.fi/venevuokraus/finngulf/28/2658</name>
        <styleUrl>#generic</styleUrl>
        <Point>
            <coordinates>24.717918689869,60.145666047976,0</coordinates>
        </Point>
        </Placemark>
                        
        <Placemark>
        <name>---120.39999999999999--- www.skipperi.fi/venevuokraus/compis/33/6054</name>
        <styleUrl>#generic</styleUrl>
        <Point>
            <coordinates>12.914498964139,55.583888830927,0</coordinates>
        </Point>
        </Placemark>
                        
        <Placemark>
        <name>---103.19999999999999--- www.skipperi.fi/venevuokraus/trio/80/4512</name>
        <styleUrl>#generic</styleUrl>
        <Point>
            <coordinates>11.83814836392,57.661799891863,0</coordinates>
        </Point>
        </Placemark>
                        
        <Placemark>
        <name>---300.0--- www.skipperi.fi/venevuokraus/finntern/35/5298</name>
        <styleUrl>#generic</styleUrl>
        <Point>
            <coordinates>23.104525695872,63.865788843159,0</coordinates>
        </Point>
        </Placemark>
                        
        <Placemark>
        <name>---81.27--- www.skipperi.fi/venevuokraus/sveakryssare/36-fot/2307</name>
        <styleUrl>#generic</styleUrl>
        <Point>
            <coordinates>18.274565885016,59.082125943723,0</coordinates>
        </Point>
        </Placemark>
                        
        <Placemark>
        <name>---387.0--- www.skipperi.fi/venevuokraus/dufour/412/5903</name>
        <styleUrl>#generic</styleUrl>
        <Point>
            <coordinates>18.277623653412,59.457301104631,0</coordinates>
        </Point>
        </Placemark>
                        
        <Placemark>
        <name>---146.2--- www.skipperi.fi/venevuokraus/maxi/87/3191</name>
        <styleUrl>#generic</styleUrl>
        <Point>
            <coordinates>11.691294261897,57.895712519014,0</coordinates>
        </Point>
        </Placemark>
                        
        <Placemark>
        <name>---130.0--- www.skipperi.fi/venevuokraus/omega/30a/2453</name>
        <styleUrl>#generic</styleUrl>
        <Point>
            <coordinates>21.806850366587,60.402116846131,0</coordinates>
        </Point>
        </Placemark>
                        
        <Placemark>
        <name>---140.0--- www.skipperi.fi/venevuokraus/artina/artina33/5492</name>
        <styleUrl>#generic</styleUrl>
        <Point>
            <coordinates>22.158284042045,60.425750216138,0</coordinates>
        </Point>
        </Placemark>
                        
        <Placemark>
        <name>---119.11--- www.skipperi.fi/venevuokraus/facil/35/3620</name>
        <styleUrl>#generic</styleUrl>
        <Point>
            <coordinates>17.992116321549,59.328667520907,0</coordinates>
        </Point>
        </Placemark>
                        
        <Placemark>
        <name>---68.8--- www.skipperi.fi/venevuokraus/ohlson/88/4581</name>
        <styleUrl>#generic</styleUrl>
        <Point>
            <coordinates>18.278331756592,59.25543935106,0</coordinates>
        </Point>
        </Placemark>
                        
        <Placemark>
        <name>---75.0--- www.skipperi.fi/venevuokraus/finn-express/64/6037</name>
        <styleUrl>#generic</styleUrl>
        <Point>
            <coordinates>25.138669809291,60.198158170528,0</coordinates>
        </Point>
        </Placemark>
                        
        <Placemark>
        <name>---172.0--- www.skipperi.fi/venevuokraus/albin/stratus-35/6145</name>
        <styleUrl>#generic</styleUrl>
        <Point>
            <coordinates>11.801698783178,57.763582755755,0</coordinates>
        </Point>
        </Placemark>
                        
        <Placemark>
        <name>---98.89999999999999--- www.skipperi.fi/venevuokraus/artekno/h-35/2523</name>
        <styleUrl>#generic</styleUrl>
        <Point>
            <coordinates>17.952554530617,58.899529412253,0</coordinates>
        </Point>
        </Placemark>
                        
        <Placemark>
        <name>---340.0--- www.skipperi.fi/venevuokraus/bavaria/37-cruiser/3556</name>
        <styleUrl>#generic</styleUrl>
        <Point>
            <coordinates>24.734440547218,60.143884178629,0</coordinates>
        </Point>
        </Placemark>
                        
        <Placemark>
        <name>---350.0--- www.skipperi.fi/venevuokraus/dufour/375-grand-large/1325</name>
        <styleUrl>#generic</styleUrl>
        <Point>
            <coordinates>22.406648666717,59.92006044913,0</coordinates>
        </Point>
        </Placemark>
                        
        <Placemark>
        <name>---300.0--- www.skipperi.fi/venevuokraus/elan/340/1441</name>
        <styleUrl>#generic</styleUrl>
        <Point>
            <coordinates>22.409550419824,59.920275665889,0</coordinates>
        </Point>
        </Placemark>
                        
        <Placemark>
        <name>---330.0--- www.skipperi.fi/venevuokraus/bavaria/39-cruiser/5421</name>
        <styleUrl>#generic</styleUrl>
        <Point>
            <coordinates>24.959587307502,60.168634673085,0</coordinates>
        </Point>
        </Placemark>
                        
        <Placemark>
        <name>---189.2--- www.skipperi.fi/venevuokraus/albin/scampi-30-mk-iv/4715</name>
        <styleUrl>#generic</styleUrl>
        <Point>
            <coordinates>18.628211404753,59.338897490436,0</coordinates>
        </Point>
        </Placemark>
                        
        <Placemark>
        <name>---137.6--- www.skipperi.fi/venevuokraus/albin/accent/2863</name>
        <styleUrl>#generic</styleUrl>
        <Point>
            <coordinates>18.419482684164,59.137931495763,0</coordinates>
        </Point>
        </Placemark>
                        
        <Placemark>
        <name>---150.0--- www.skipperi.fi/venevuokraus/jeanneau/sunrise-34/6022</name>
        <styleUrl>#generic</styleUrl>
        <Point>
            <coordinates>25.140151977539,60.199994996757,0</coordinates>
        </Point>
        </Placemark>
                        
        <Placemark>
        <name>---115.24--- www.skipperi.fi/venevuokraus/tailwind/33/2889</name>
        <styleUrl>#generic</styleUrl>
        <Point>
            <coordinates>18.509704820508,59.527738986531,0</coordinates>
        </Point>
        </Placemark>
                        
        <Placemark>
        <name>---388.0--- www.skipperi.fi/venevuokraus/bavaria/36c-farr-design-3-cabin/3964</name>
        <styleUrl>#generic</styleUrl>
        <Point>
            <coordinates>22.119108490878,60.462768095875,0</coordinates>
        </Point>
        </Placemark>
                        
        <Placemark>
        <name>---231.33999999999997--- www.skipperi.fi/venevuokraus/jeanneau/sun-odyssey-33i/3776</name>
        <styleUrl>#generic</styleUrl>
        <Point>
            <coordinates>18.160915374755,59.31838941181,0</coordinates>
        </Point>
        </Placemark>
                        
        <Placemark>
        <name>---129.0--- www.skipperi.fi/venevuokraus/albin/accent/5981</name>
        <styleUrl>#generic</styleUrl>
        <Point>
            <coordinates>12.922512952845,55.588027479603,0</coordinates>
        </Point>
        </Placemark>
                        
        <Placemark>
        <name>---190.0--- www.skipperi.fi/venevuokraus/finngulf/33/357</name>
        <styleUrl>#generic</styleUrl>
        <Point>
            <coordinates>22.182426452637,60.387533513121,0</coordinates>
        </Point>
        </Placemark>
                        
        <Placemark>
        <name>---148.0--- www.skipperi.fi/venevuokraus/jeanneau/sun-fizz-40/1726</name>
        <styleUrl>#generic</styleUrl>
        <Point>
            <coordinates>22.408708100244,59.92021128262,0</coordinates>
        </Point>
        </Placemark>
                        
        <Placemark>
        <name>---330.0--- www.skipperi.fi/venevuokraus/finngulf/36/5378</name>
        <styleUrl>#generic</styleUrl>
        <Point>
            <coordinates>21.934683753764,60.185330884976,0</coordinates>
        </Point>
        </Placemark>
                        
        <Placemark>
        <name>---225.0--- www.skipperi.fi/venevuokraus/bavaria/34/3546</name>
        <styleUrl>#generic</styleUrl>
        <Point>
            <coordinates>21.806144714355,60.402662812416,0</coordinates>
        </Point>
        </Placemark>
                        
        <Placemark>
        <name>---172.0--- www.skipperi.fi/venevuokraus/comfortina/32/4784</name>
        <styleUrl>#generic</styleUrl>
        <Point>
            <coordinates>11.816747946205,58.066948660794,0</coordinates>
        </Point>
        </Placemark>
                        
        <Placemark>
        <name>---214.99999999999997--- www.skipperi.fi/venevuokraus/jeanneau/sun-odyssey-33/5331</name>
        <styleUrl>#generic</styleUrl>
        <Point>
            <coordinates>18.197272167571,59.377553725828,0</coordinates>
        </Point>
        </Placemark>
                        
        <Placemark>
        <name>---77.39999999999999--- www.skipperi.fi/venevuokraus/albin/vega/4870</name>
        <styleUrl>#generic</styleUrl>
        <Point>
            <coordinates>18.649291992188,59.300428078876,0</coordinates>
        </Point>
        </Placemark>
                        
        <Placemark>
        <name>---275.2--- www.skipperi.fi/venevuokraus/bavaria/37c/5420</name>
        <styleUrl>#generic</styleUrl>
        <Point>
            <coordinates>18.112029346621,59.436502001278,0</coordinates>
        </Point>
        </Placemark>
                        
        <Placemark>
        <name>---250.0--- www.skipperi.fi/venevuokraus/finngulf/335/5508</name>
        <styleUrl>#generic</styleUrl>
        <Point>
            <coordinates>24.892657688858,60.153148512312,0</coordinates>
        </Point>
        </Placemark>
                        
        <Placemark>
        <name>---350.0--- www.skipperi.fi/venevuokraus/finngulf/41/2773</name>
        <styleUrl>#generic</styleUrl>
        <Point>
            <coordinates>24.894128284496,60.152951330726,0</coordinates>
        </Point>
        </Placemark>
                        
        <Placemark>
        <name>---150.0--- www.skipperi.fi/venevuokraus/bavaria/36-cruiser/2485</name>
        <styleUrl>#generic</styleUrl>
        <Point>
            <coordinates>24.716782582329,60.145614922313,0</coordinates>
        </Point>
        </Placemark>
                        
        <Placemark>
        <name>---85.0--- www.skipperi.fi/venevuokraus/marina/75/4359</name>
        <styleUrl>#generic</styleUrl>
        <Point>
            <coordinates>24.947888196405,60.151568791958,0</coordinates>
        </Point>
        </Placemark>
                        
        <Placemark>
        <name>---214.99999999999997--- www.skipperi.fi/venevuokraus/hanse/325/2697</name>
        <styleUrl>#generic</styleUrl>
        <Point>
            <coordinates>11.65885954612,57.706854603725,0</coordinates>
        </Point>
        </Placemark>
                        
        <Placemark>
        <name>---262.3--- www.skipperi.fi/venevuokraus/bavaria/39-cruiser/5253</name>
        <styleUrl>#generic</styleUrl>
        <Point>
            <coordinates>18.379617690667,59.323774477388,0</coordinates>
        </Point>
        </Placemark>
                        
        <Placemark>
        <name>---170.0--- www.skipperi.fi/venevuokraus/fjord/ms-33/4461</name>
        <styleUrl>#generic</styleUrl>
        <Point>
            <coordinates>24.963928640907,60.171733562595,0</coordinates>
        </Point>
        </Placemark>
                        
        <Placemark>
        <name>---150.0--- www.skipperi.fi/venevuokraus/guyline/95/4510</name>
        <styleUrl>#generic</styleUrl>
        <Point>
            <coordinates>22.121810918342,60.260374396203,0</coordinates>
        </Point>
        </Placemark>
                        
        <Placemark>
        <name>---325.0--- www.skipperi.fi/venevuokraus/jeanneau/sun-odyssey-33i/5804</name>
        <styleUrl>#generic</styleUrl>
        <Point>
            <coordinates>24.716324359116,60.146225298705,0</coordinates>
        </Point>
        </Placemark>
                        
        <Placemark>
        <name>---264.45--- www.skipperi.fi/venevuokraus/dufour/375/3955</name>
        <styleUrl>#generic</styleUrl>
        <Point>
            <coordinates>18.421805687492,59.138542108943,0</coordinates>
        </Point>
        </Placemark>
                        
        <Placemark>
        <name>---206.4--- www.skipperi.fi/venevuokraus/bavaria/30c/5433</name>
        <styleUrl>#generic</styleUrl>
        <Point>
            <coordinates>16.578543546077,59.599495255759,0</coordinates>
        </Point>
        </Placemark>
                        
        <Placemark>
        <name>---200.0--- www.skipperi.fi/venevuokraus/sandibar/35/651</name>
        <styleUrl>#generic</styleUrl>
        <Point>
            <coordinates>22.96477821772,59.830065745789,0</coordinates>
        </Point>
        </Placemark>
                        
        <Placemark>
        <name>---98.89999999999999--- www.skipperi.fi/venevuokraus/comfort/comfort-30/4971</name>
        <styleUrl>#generic</styleUrl>
        <Point>
            <coordinates>11.800123077525,57.763459422712,0</coordinates>
        </Point>
        </Placemark>
                        
        <Placemark>
        <name>---64.49999999999999--- www.skipperi.fi/venevuokraus/ohlson/88/6032</name>
        <styleUrl>#generic</styleUrl>
        <Point>
            <coordinates>11.909730024422,57.698506037138,0</coordinates>
        </Point>
        </Placemark>
                        
        <Placemark>
        <name>---70.0--- www.skipperi.fi/venevuokraus/netta/h-30/2465</name>
        <styleUrl>#generic</styleUrl>
        <Point>
            <coordinates>24.904489731707,60.16032506548,0</coordinates>
        </Point>
        </Placemark>
                        
        <Placemark>
        <name>---73.1--- www.skipperi.fi/venevuokraus/compis/compis-28/6173</name>
        <styleUrl>#generic</styleUrl>
        <Point>
            <coordinates>11.806612014771,57.760692520943,0</coordinates>
        </Point>
        </Placemark>
                        
        <Placemark>
        <name>---159.52999999999997--- www.skipperi.fi/venevuokraus/ohlson/88/3167</name>
        <styleUrl>#generic</styleUrl>
        <Point>
            <coordinates>11.424656226019,58.276585297266,0</coordinates>
        </Point>
        </Placemark>
                        
        <Placemark>
        <name>---214.99999999999997--- www.skipperi.fi/venevuokraus/mamba/36/5692</name>
        <styleUrl>#generic</styleUrl>
        <Point>
            <coordinates>18.289704322815,59.097862807679,0</coordinates>
        </Point>
        </Placemark>
                        
        <Placemark>
        <name>---250.0--- www.skipperi.fi/venevuokraus/deger/35s/4749</name>
        <styleUrl>#generic</styleUrl>
        <Point>
            <coordinates>22.12168710552,60.261504090728,0</coordinates>
        </Point>
        </Placemark>
                        
        <Placemark>
        <name>---250.0--- www.skipperi.fi/venevuokraus/bavaria/30-cruiser/5289</name>
        <styleUrl>#generic</styleUrl>
        <Point>
            <coordinates>28.0957424462,61.228667111878,0</coordinates>
        </Point>
        </Placemark>
                        
        <Placemark>
        <name>---68.8--- www.skipperi.fi/venevuokraus/maxi/68/5779</name>
        <styleUrl>#generic</styleUrl>
        <Point>
            <coordinates>11.803269866797,57.762399217168,0</coordinates>
        </Point>
        </Placemark>
                        
        <Placemark>
        <name>---100.0--- www.skipperi.fi/venevuokraus/artekno/h-323/2857</name>
        <styleUrl>#generic</styleUrl>
        <Point>
            <coordinates>24.621949737477,60.15527930701,0</coordinates>
        </Point>
        </Placemark>
                        
        <Placemark>
        <name>---64.49999999999999--- www.skipperi.fi/venevuokraus/maxi/77/4382</name>
        <styleUrl>#generic</styleUrl>
        <Point>
            <coordinates>18.315508293475,59.276906102642,0</coordinates>
        </Point>
        </Placemark>
                        
        <Placemark>
        <name>---146.2--- www.skipperi.fi/venevuokraus/conqubin/38-cr/6181</name>
        <styleUrl>#generic</styleUrl>
        <Point>
            <coordinates>18.375047561272,59.180258746177,0</coordinates>
        </Point>
        </Placemark>
                        
        <Placemark>
        <name>---86.0--- www.skipperi.fi/venevuokraus/albin/cumulus/4802</name>
        <styleUrl>#generic</styleUrl>
        <Point>
            <coordinates>18.484668731689,59.513509946547,0</coordinates>
        </Point>
        </Placemark>
                        
        <Placemark>
        <name>---77.39999999999999--- www.skipperi.fi/venevuokraus/shipman/28/5839</name>
        <styleUrl>#generic</styleUrl>
        <Point>
            <coordinates>18.050462007523,59.377091745828,0</coordinates>
        </Point>
        </Placemark>
                        
        <Placemark>
        <name>---43.0--- www.skipperi.fi/venevuokraus/maxi/77/1919</name>
        <styleUrl>#generic</styleUrl>
        <Point>
            <coordinates>11.935669278406,57.51609835723,0</coordinates>
        </Point>
        </Placemark>
                        
        <Placemark>
        <name>---180.0--- www.skipperi.fi/venevuokraus/elan/33/6010</name>
        <styleUrl>#generic</styleUrl>
        <Point>
            <coordinates>22.118911743164,60.462094906141,0</coordinates>
        </Point>
        </Placemark>
                        
        <Placemark>
        <name>---137.6--- www.skipperi.fi/venevuokraus/comet/1050/6139</name>
        <styleUrl>#generic</styleUrl>
        <Point>
            <coordinates>18.292945585609,59.098300435064,0</coordinates>
        </Point>
        </Placemark>
                        
        <Placemark>
        <name>---75.0--- www.skipperi.fi/venevuokraus/olsen/29/4740</name>
        <styleUrl>#generic</styleUrl>
        <Point>
            <coordinates>24.735385494715,60.143084862922,0</coordinates>
        </Point>
        </Placemark>
                        
        <Placemark>
        <name>---300.0--- www.skipperi.fi/venevuokraus/elizabethan/31/5182</name>
        <styleUrl>#generic</styleUrl>
        <Point>
            <coordinates>26.014751007561,60.39134551153,0</coordinates>
        </Point>
        </Placemark>
                        
        <Placemark>
        <name>---150.5--- www.skipperi.fi/venevuokraus/hanse/371/5846</name>
        <styleUrl>#generic</styleUrl>
        <Point>
            <coordinates>16.910166433485,58.327714100721,0</coordinates>
        </Point>
        </Placemark>
                        
        <Placemark>
        <name>---258.0--- www.skipperi.fi/venevuokraus/scanner/391/6048</name>
        <styleUrl>#generic</styleUrl>
        <Point>
            <coordinates>11.789474206838,57.762625298909,0</coordinates>
        </Point>
        </Placemark>
                        
        <Placemark>
        <name>---103.2--- www.skipperi.fi/venevuokraus/lm/28/6034</name>
        <styleUrl>#generic</styleUrl>
        <Point>
            <coordinates>11.855185096148,57.661041212077,0</coordinates>
        </Point>
        </Placemark>
                        
        <Placemark>
        <name>---236.49999999999997--- www.skipperi.fi/venevuokraus/hallberg-rassy/352/4937</name>
        <styleUrl>#generic</styleUrl>
        <Point>
            <coordinates>11.927851902592,57.530280677785,0</coordinates>
        </Point>
        </Placemark>
                        
        <Placemark>
        <name>---250.0--- www.skipperi.fi/venevuokraus/bavaria/32-cruiser/4585</name>
        <styleUrl>#generic</styleUrl>
        <Point>
            <coordinates>21.801301668221,60.397022882084,0</coordinates>
        </Point>
        </Placemark>
                        
        <Placemark>
        <name>---85.0--- www.skipperi.fi/venevuokraus/albin/accent/3421</name>
        <styleUrl>#generic</styleUrl>
        <Point>
            <coordinates>25.069168579601,60.19637682526,0</coordinates>
        </Point>
        </Placemark>
                        
        <Placemark>
        <name>---172.0--- www.skipperi.fi/venevuokraus/comfort/32/2916</name>
        <styleUrl>#generic</styleUrl>
        <Point>
            <coordinates>18.384817678781,59.129522878645,0</coordinates>
        </Point>
        </Placemark>
                        
        <Placemark>
        <name>---86.0--- www.skipperi.fi/venevuokraus/albin/scampi/4702</name>
        <styleUrl>#generic</styleUrl>
        <Point>
            <coordinates>16.809585707159,58.194786238823,0</coordinates>
        </Point>
        </Placemark>
                        
        <Placemark>
        <name>---450.0--- www.skipperi.fi/venevuokraus/elan/434-impression/6002</name>
        <styleUrl>#generic</styleUrl>
        <Point>
            <coordinates>22.121970636784,60.260516282206,0</coordinates>
        </Point>
        </Placemark>
                        
        <Placemark>
        <name>---40.42--- www.skipperi.fi/venevuokraus/maxi/77/5915</name>
        <styleUrl>#generic</styleUrl>
        <Point>
            <coordinates>11.68600397922,57.892658915798,0</coordinates>
        </Point>
        </Placemark>
                        
        <Placemark>
        <name>---111.79999999999998--- www.skipperi.fi/venevuokraus/linjett/32/6133</name>
        <styleUrl>#generic</styleUrl>
        <Point>
            <coordinates>18.224859237671,59.438376733376,0</coordinates>
        </Point>
        </Placemark>
                        
        <Placemark>
        <name>---120.39999999999999--- www.skipperi.fi/venevuokraus/smaragd/swe143/1354</name>
        <styleUrl>#generic</styleUrl>
        <Point>
            <coordinates>18.645489174232,59.334633081964,0</coordinates>
        </Point>
        </Placemark>
                        
        <Placemark>
        <name>---200.0--- www.skipperi.fi/venevuokraus/nauticat/s-340/5859</name>
        <styleUrl>#generic</styleUrl>
        <Point>
            <coordinates>22.244628217996,60.439880574036,0</coordinates>
        </Point>
        </Placemark>
                        
        <Placemark>
        <name>---240.0--- www.skipperi.fi/venevuokraus/nauticat/39/3942</name>
        <styleUrl>#generic</styleUrl>
        <Point>
            <coordinates>22.133474927497,60.377418497528,0</coordinates>
        </Point>
        </Placemark>
                        
        <Placemark>
        <name>---200.0--- www.skipperi.fi/venevuokraus/inferno/31/6233</name>
        <styleUrl>#generic</styleUrl>
        <Point>
            <coordinates>25.067667961121,60.197051626719,0</coordinates>
        </Point>
        </Placemark>
                        
        <Placemark>
        <name>---74.82000000000001--- www.skipperi.fi/venevuokraus/maxi/77/4107</name>
        <styleUrl>#generic</styleUrl>
        <Point>
            <coordinates>18.134737014771,59.310921278021,0</coordinates>
        </Point>
        </Placemark>
                        
        <Placemark>
        <name>---1057.8--- www.skipperi.fi/venevuokraus/bavaria/46-cruiser/444</name>
        <styleUrl>#generic</styleUrl>
        <Point>
            <coordinates>18.650515079498,59.300975820701,0</coordinates>
        </Point>
        </Placemark>
                        
        <Placemark>
        <name>---180.59999999999997--- www.skipperi.fi/venevuokraus/jeanneau/sun-odyssey/6179</name>
        <styleUrl>#generic</styleUrl>
        <Point>
            <coordinates>12.020716667175,57.388281158941,0</coordinates>
        </Point>
        </Placemark>
                        
        <Placemark>
        <name>---185.0--- www.skipperi.fi/venevuokraus/bavaria/34-3/6191</name>
        <styleUrl>#generic</styleUrl>
        <Point>
            <coordinates>22.286216675874,60.14977475104,0</coordinates>
        </Point>
        </Placemark>
                        
        <Placemark>
        <name>---180.0--- www.skipperi.fi/venevuokraus/dufour/365/5922</name>
        <styleUrl>#generic</styleUrl>
        <Point>
            <coordinates>25.021469593048,60.190534748792,0</coordinates>
        </Point>
        </Placemark>
                        
        <Placemark>
        <name>---180.59999999999997--- www.skipperi.fi/venevuokraus/nauticat/32/6070</name>
        <styleUrl>#generic</styleUrl>
        <Point>
            <coordinates>18.278433544044,59.458326442709,0</coordinates>
        </Point>
        </Placemark>
                        
        <Placemark>
        <name>---103.2--- www.skipperi.fi/venevuokraus/comfort-26/comfort/5848</name>
        <styleUrl>#generic</styleUrl>
        <Point>
            <coordinates>16.694704360153,57.901780827934,0</coordinates>
        </Point>
        </Placemark>
                        
        <Placemark>
        <name>---43.0--- www.skipperi.fi/venevuokraus/rj/85/5867</name>
        <styleUrl>#generic</styleUrl>
        <Point>
            <coordinates>12.548661231995,56.198730757275,0</coordinates>
        </Point>
        </Placemark>
                        
        <Placemark>
        <name>---170.0--- www.skipperi.fi/venevuokraus/albin/vega/6113</name>
        <styleUrl>#generic</styleUrl>
        <Point>
            <coordinates>24.640511469358,60.143544778699,0</coordinates>
        </Point>
        </Placemark>
                        
        <Placemark>
        <name>---266.59999999999997--- www.skipperi.fi/venevuokraus/bavaria/42-cruiser/4448</name>
        <styleUrl>#generic</styleUrl>
        <Point>
            <coordinates>18.730217431776,63.283014346069,0</coordinates>
        </Point>
        </Placemark>
                        
        <Placemark>
        <name>---51.6--- www.skipperi.fi/venevuokraus/sunwind/26/6066</name>
        <styleUrl>#generic</styleUrl>
        <Point>
            <coordinates>13.060211374237,55.674157637436,0</coordinates>
        </Point>
        </Placemark>
                        
        <Placemark>
        <name>---43.0--- www.skipperi.fi/venevuokraus/marieholm/if/6204</name>
        <styleUrl>#generic</styleUrl>
        <Point>
            <coordinates>13.060340881348,55.675648540599,0</coordinates>
        </Point>
        </Placemark>
                        
        <Placemark>
        <name>---73.96--- www.skipperi.fi/venevuokraus/maxi/77/5831</name>
        <styleUrl>#generic</styleUrl>
        <Point>
            <coordinates>12.922497495211,55.588725791353,0</coordinates>
        </Point>
        </Placemark>
                        
        <Placemark>
        <name>---249.4--- www.skipperi.fi/venevuokraus/dufour/325/6033</name>
        <styleUrl>#generic</styleUrl>
        <Point>
            <coordinates>11.84157419662,57.661104515019,0</coordinates>
        </Point>
        </Placemark>
                        
        <Placemark>
        <name>---77.39999999999999--- www.skipperi.fi/venevuokraus/albin/express/6246</name>
        <styleUrl>#generic</styleUrl>
        <Point>
            <coordinates>11.802650198587,57.76157409317,0</coordinates>
        </Point>
        </Placemark>
                        
        <Placemark>
        <name>---111.79999999999998--- www.skipperi.fi/venevuokraus/norlin/34-mk2/6138</name>
        <styleUrl>#generic</styleUrl>
        <Point>
            <coordinates>11.840407848358,57.660704593734,0</coordinates>
        </Point>
        </Placemark>
                        
        <Placemark>
        <name>---160.0--- www.skipperi.fi/venevuokraus/kipparipalvelu/purjeveneille/1971</name>
        <styleUrl>#generic</styleUrl>
        <Point>
            <coordinates>25.141630876857,60.19882723813,0</coordinates>
        </Point>
        </Placemark>
                        
        <Placemark>
        <name>---43.0--- www.skipperi.fi/venevuokraus/internationell-folkbt/if-marieholm/6169</name>
        <styleUrl>#generic</styleUrl>
        <Point>
            <coordinates>11.802224005866,57.757375494686,0</coordinates>
        </Point>
        </Placemark>
                        
        <Placemark>
        <name>---200.0--- www.skipperi.fi/venevuokraus/helmsman/lady/6069</name>
        <styleUrl>#generic</styleUrl>
        <Point>
            <coordinates>24.736683368683,60.14434626578,0</coordinates>
        </Point>
        </Placemark>
                        
        <Placemark>
        <name>---43.0--- www.skipperi.fi/venevuokraus/triss-norlin/570/5908</name>
        <styleUrl>#generic</styleUrl>
        <Point>
            <coordinates>15.562272763631,56.112491525113,0</coordinates>
        </Point>
        </Placemark>
                        
        <Placemark>
        <name>---240.0--- www.skipperi.fi/venevuokraus/hanse/375/6050</name>
        <styleUrl>#generic</styleUrl>
        <Point>
            <coordinates>24.73591016386,60.142682889096,0</coordinates>
        </Point>
        </Placemark>
                        
        <Placemark>
        <name>---100.0--- www.skipperi.fi/venevuokraus/albin/express-pikantti/6187</name>
        <styleUrl>#generic</styleUrl>
        <Point>
            <coordinates>25.24032449913,60.237427324102,0</coordinates>
        </Point>
        </Placemark>
                        
        <Placemark>
        <name>---225.0--- www.skipperi.fi/venevuokraus/finn-flyer/31/6234</name>
        <styleUrl>#generic</styleUrl>
        <Point>
            <coordinates>21.919218802605,60.175993799988,0</coordinates>
        </Point>
        </Placemark>
                        
        <Placemark>
        <name>---64.49999999999999--- www.skipperi.fi/venevuokraus/becker-27/1981/6134</name>
        <styleUrl>#generic</styleUrl>
        <Point>
            <coordinates>18.130364202219,59.220854009658,0</coordinates>
        </Point>
        </Placemark>
                        
        <Placemark>
        <name>---51.599999999999994--- www.skipperi.fi/venevuokraus/albin/viggen/5876</name>
        <styleUrl>#generic</styleUrl>
        <Point>
            <coordinates>18.323777458222,59.092339546556,0</coordinates>
        </Point>
        </Placemark>
                        
        <Placemark>
        <name>---103.2--- www.skipperi.fi/venevuokraus/shipman/30/6217</name>
        <styleUrl>#generic</styleUrl>
        <Point>
            <coordinates>11.803307533264,57.761997425567,0</coordinates>
        </Point>
        </Placemark>
                        
        <Placemark>
        <name>---73.1--- www.skipperi.fi/venevuokraus/maxi/77/6170</name>
        <styleUrl>#generic</styleUrl>
        <Point>
            <coordinates>18.12166929245,59.3105598751,0</coordinates>
        </Point>
        </Placemark>
                        
        <Placemark>
        <name>---86.0--- www.skipperi.fi/venevuokraus/scanmar/33/6159</name>
        <styleUrl>#generic</styleUrl>
        <Point>
            <coordinates>18.590133190155,60.073560809991,0</coordinates>
        </Point>
        </Placemark>
                        
        <Placemark>
        <name>---86.0--- www.skipperi.fi/venevuokraus/arcona/32/6093</name>
        <styleUrl>#generic</styleUrl>
        <Point>
            <coordinates>18.637137826033,59.333961556261,0</coordinates>
        </Point>
        </Placemark>
                        
        <Placemark>
        <name>---86.0--- www.skipperi.fi/venevuokraus/ansa/42/5799</name>
        <styleUrl>#generic</styleUrl>
        <Point>
            <coordinates>18.856301405009,59.700390302455,0</coordinates>
        </Point>
        </Placemark>
                        
        <Placemark>
        <name>---180.0--- www.skipperi.fi/venevuokraus/bianca/36/3536</name>
        <styleUrl>#generic</styleUrl>
        <Point>
            <coordinates>24.718438173839,60.146034120569,0</coordinates>
        </Point>
        </Placemark>
                        
        <Placemark>
        <name>---137.6--- www.skipperi.fi/venevuokraus/comfortina/32/6123</name>
        <styleUrl>#generic</styleUrl>
        <Point>
            <coordinates>11.669856212307,57.73307457596,0</coordinates>
        </Point>
        </Placemark>
                        
        <Placemark>
        <name>---55.9--- www.skipperi.fi/venevuokraus/marieholm/sea-cat/5541</name>
        <styleUrl>#generic</styleUrl>
        <Point>
            <coordinates>18.642425537109,60.137744135937,0</coordinates>
        </Point>
        </Placemark>
                        
        <Placemark>
        <name>---257.99999999999994--- www.skipperi.fi/venevuokraus/bavaria-38/bavaria-38/6156</name>
        <styleUrl>#generic</styleUrl>
        <Point>
            <coordinates>11.934300164944,57.487366073912,0</coordinates>
        </Point>
        </Placemark>
                        
        <Placemark>
        <name>---103.2--- www.skipperi.fi/venevuokraus/maxi/95/6155</name>
        <styleUrl>#generic</styleUrl>
        <Point>
            <coordinates>18.779475688934,63.256849226752,0</coordinates>
        </Point>
        </Placemark>
                        
        <Placemark>
        <name>---8.6--- www.skipperi.fi/venevuokraus/albin/basti/6154</name>
        <styleUrl>#generic</styleUrl>
        <Point>
            <coordinates>18.07165145874,59.326841097226,0</coordinates>
        </Point>
        </Placemark>
                        
        <Placemark>
        <name>---445.90999999999997--- www.skipperi.fi/venevuokraus/bavaria/50/1315</name>
        <styleUrl>#generic</styleUrl>
        <Point>
            <coordinates>18.402336981202,59.135805794152,0</coordinates>
        </Point>
        </Placemark>
                        
        <Placemark>
        <name>---184.212--- www.skipperi.fi/venevuokraus/beneteau/oceanis-350/6053</name>
        <styleUrl>#generic</styleUrl>
        <Point>
            <coordinates>18.110706958212,59.43538278141,0</coordinates>
        </Point>
        </Placemark>
                        
        <Placemark>
        <name>---214.99999999999997--- www.skipperi.fi/venevuokraus/comfortina-35/comfortina-35/5476</name>
        <styleUrl>#generic</styleUrl>
        <Point>
            <coordinates>11.943601401727,57.707763543482,0</coordinates>
        </Point>
        </Placemark>
                        
        <Placemark>
        <name>---154.79999999999998--- www.skipperi.fi/venevuokraus/arcona/32/5757</name>
        <styleUrl>#generic</styleUrl>
        <Point>
            <coordinates>18.559570278294,59.227338954049,0</coordinates>
        </Point>
        </Placemark>
                        
        <Placemark>
        <name>---500.0--- www.skipperi.fi/venevuokraus/sydney/40/6030</name>
        <styleUrl>#generic</styleUrl>
        <Point>
            <coordinates>24.736661911011,60.14434626578,0</coordinates>
        </Point>
        </Placemark>
                        
        <Placemark>
        <name>---60.199999999999996--- www.skipperi.fi/venevuokraus/albin/78-cirrus/6208</name>
        <styleUrl>#generic</styleUrl>
        <Point>
            <coordinates>11.699323654175,57.852470152593,0</coordinates>
        </Point>
        </Placemark>
                        
        <Placemark>
        <name>---275.2--- www.skipperi.fi/venevuokraus/beneteau/first-36.7/6201</name>
        <styleUrl>#generic</styleUrl>
        <Point>
            <coordinates>17.690698760648,59.019436219302,0</coordinates>
        </Point>
        </Placemark>
                    
                
                        
    </Document>
    </kml>


                